{
  "meta": {
    "source": "@hastingscitynz Instagram",
    "posts_analysed": 200,
    "total_posts": 831,
    "date_range": "2024-12-11 to 2026-02-26",
    "total_bid_members": 480,
    "unique_businesses_found": 136,
    "coverage_rate_pct": 28,
    "generated": "2026-02-27"
  },
  "zones": {
    "east": {
      "label": "Heretaunga Street East",
      "description": "East of the Railway Rd / Hastings St intersection. Includes Tribune Precinct, Queen St East corridor, Eastbourne St.",
      "color": "#ff4d4d",
      "bounds": [[-39.6345,176.8415],[-39.6345,176.8500],[-39.6430,176.8500],[-39.6430,176.8415]]
    },
    "west": {
      "label": "Heretaunga Street West",
      "description": "West of Railway Rd / Hastings St. Includes Bay Plaza, Karamu Rd end, Market St South.",
      "color": "#60a5fa",
      "bounds": [[-39.6345,176.8370],[-39.6345,176.8415],[-39.6430,176.8415],[-39.6430,176.8370]]
    },
    "other": {
      "label": "Off Heretaunga",
      "description": "Businesses not on or immediately adjacent to Heretaunga Street.",
      "color": "#888888"
    }
  },
  "divider": {
    "label": "Railway Rd / Hastings St — East/West Divide",
    "lng": 176.8415,
    "coords": [[-39.6345, 176.8415], [-39.6430, 176.8415]]
  },
  "businesses": [
    {"name":"Toitoi Venues","handle":"@toitoivenues","mentions":18,"lat":-39.63740,"lng":176.84240,"street":"Hastings St South","category":"arts","zone":"east","verified":false},
    {"name":"Brave Brewing Co","handle":"@bravebrewingco","mentions":8,"lat":-39.63765,"lng":176.84550,"street":"205 Queen St East","category":"food","zone":"east","verified":true},
    {"name":"Rush Munro's","handle":"@rushmunros","mentions":7,"lat":-39.63845,"lng":176.84180,"street":"Heretaunga St East","category":"food","zone":"east","verified":false},
    {"name":"Your Local Focal","handle":"@yourlocalfocal","mentions":5,"lat":-39.63850,"lng":176.84195,"street":"Heretaunga St East","category":"arts","zone":"east","verified":false},
    {"name":"Waiaro Water Centre","handle":"@waiarohawatercentre","mentions":5,"lat":-39.64020,"lng":176.83900,"street":"Queen St West","category":"arts","zone":"west","verified":false},
    {"name":"Hastings Art Gallery","handle":"@hastingsartgallery","mentions":5,"lat":-39.63880,"lng":176.84080,"street":"Eastbourne St","category":"arts","zone":"east","verified":false},
    {"name":"Long Island Deli","handle":"@longislanddeli","mentions":4,"lat":-39.63695,"lng":176.84710,"street":"319 Heretaunga St East","category":"food","zone":"east","verified":true},
    {"name":"Hastings Distillers","handle":"@hastingsdistillers","mentions":4,"lat":-39.63740,"lng":176.84580,"street":"Heretaunga St East","category":"food","zone":"east","verified":false},
    {"name":"Common Room","handle":"@commonroomhb","mentions":4,"lat":-39.63790,"lng":176.84480,"street":"Heretaunga St East","category":"food","zone":"east","verified":false},
    {"name":"John's Bakery & Cafe","handle":"@johns.bakeryncafe","mentions":4,"lat":-39.63810,"lng":176.84380,"street":"Heretaunga St East","category":"food","zone":"east","verified":false},
    {"name":"Kindred Road","handle":"@kindredroad","mentions":4,"lat":-39.63770,"lng":176.84540,"street":"201 Queen St East","category":"retail","zone":"east","verified":true},
    {"name":"Blackbird Goods","handle":"@blackbirdgoods","mentions":4,"lat":-39.63805,"lng":176.84420,"street":"Heretaunga St East","category":"retail","zone":"east","verified":false},
    {"name":"HD Libraries","handle":"@hdlibraries","mentions":4,"lat":-39.63890,"lng":176.84060,"street":"Eastbourne St","category":"arts","zone":"east","verified":false},
    {"name":"Sazio","handle":"@sazio_nz","mentions":3,"lat":-39.63825,"lng":176.84300,"street":"112 Heretaunga St East","category":"food","zone":"east","verified":true},
    {"name":"Fun Buns","handle":"@funbunsnz","mentions":3,"lat":-39.63800,"lng":176.84450,"street":"Heretaunga St East","category":"food","zone":"east","verified":false},
    {"name":"Craft & Social","handle":"@craftandsocial","mentions":3,"lat":-39.63775,"lng":176.84520,"street":"Heretaunga St East","category":"food","zone":"east","verified":false},
    {"name":"Hutchinsons Interiors","handle":"@hutchinsonsinteriors","mentions":3,"lat":-39.63750,"lng":176.84600,"street":"Eastbourne St","category":"retail","zone":"east","verified":false},
    {"name":"Pom Pom Florals","handle":"@pompom_florals","mentions":3,"lat":-39.63808,"lng":176.84360,"street":"212 Heretaunga St East","category":"retail","zone":"east","verified":true},
    {"name":"O Studio","handle":"@ostudio_hawkesbay","mentions":3,"lat":-39.63680,"lng":176.84520,"street":"Tribune Precinct","category":"services","zone":"east","verified":false},
    {"name":"Sano Health","handle":"@sano_health_nz","mentions":3,"lat":-39.63950,"lng":176.84400,"street":"109 Lyndon Rd East","category":"services","zone":"other","verified":true},
    {"name":"Tribune Precinct","handle":"@tribunehawkesbay","mentions":3,"lat":-39.63670,"lng":176.84530,"street":"Tribune Precinct","category":"arts","zone":"east","verified":false},
    {"name":"Rosie O'Grady's","handle":"@rosieogradys_hb","mentions":2,"lat":-39.63785,"lng":176.84490,"street":"Heretaunga St East","category":"food","zone":"east","verified":false},
    {"name":"Cranky Chicken","handle":"@crankychicken_nz","mentions":2,"lat":-39.63808,"lng":176.84345,"street":"211 Heretaunga St East","category":"food","zone":"east","verified":true},
    {"name":"495 Wines","handle":"@495wines","mentions":2,"lat":-39.63760,"lng":176.84560,"street":"Heretaunga St East","category":"food","zone":"east","verified":false},
    {"name":"Decibel Wines","handle":"@decibelwines","mentions":2,"lat":-39.63755,"lng":176.84570,"street":"Heretaunga St East","category":"food","zone":"east","verified":false},
    {"name":"Coffee Aurum","handle":"@coffeeaurum","mentions":2,"lat":-39.63820,"lng":176.84320,"street":"Heretaunga St East","category":"food","zone":"east","verified":false},
    {"name":"Rosina Eatery","handle":"@rosinaeatery__","mentions":2,"lat":-39.63830,"lng":176.84280,"street":"Heretaunga St East","category":"food","zone":"east","verified":false},
    {"name":"Cupple Coffee","handle":"@cupple.coffee","mentions":2,"lat":-39.63815,"lng":176.84340,"street":"Heretaunga St East","category":"food","zone":"east","verified":false},
    {"name":"The Lolly Shop","handle":"@lollyshopnz","mentions":2,"lat":-39.63870,"lng":176.84080,"street":"245 Heretaunga St West","category":"food","zone":"west","verified":true},
    {"name":"Matangi NZ","handle":"@matangi_nz","mentions":2,"lat":-39.63810,"lng":176.84390,"street":"Heretaunga St East","category":"retail","zone":"east","verified":false},
    {"name":"Bendon Lingerie","handle":"@bendonlingerie","mentions":2,"lat":-39.63830,"lng":176.84270,"street":"105 Heretaunga St East","category":"retail","zone":"east","verified":true},
    {"name":"Alexander's Menswear","handle":"@alexandershastings","mentions":2,"lat":-39.63815,"lng":176.84360,"street":"215 Heretaunga St East","category":"retail","zone":"east","verified":true},
    {"name":"Suzelle Lingerie","handle":"@suzellelingerie","mentions":2,"lat":-39.63855,"lng":176.84130,"street":"108 Heretaunga St West","category":"retail","zone":"west","verified":true},
    {"name":"JoJoBee Earrings","handle":"@love.jojobee","mentions":2,"lat":-39.63780,"lng":176.83940,"street":"104 Karamu Rd North","category":"retail","zone":"west","verified":true},
    {"name":"Dr Feel Good","handle":"@drfeelgood.nz","mentions":2,"lat":-39.63660,"lng":176.84480,"street":"204 Warren St North","category":"services","zone":"other","verified":true},
    {"name":"Velvet Nails & Beauty","handle":"@velvetnailslashes","mentions":2,"lat":-39.63690,"lng":176.84510,"street":"Tribune Precinct","category":"services","zone":"east","verified":false},
    {"name":"One Yoga Pilates","handle":"@one_yoga_pilates","mentions":2,"lat":-39.63700,"lng":176.84500,"street":"Eastbourne St","category":"services","zone":"east","verified":false},
    {"name":"Cupple NZ","handle":"@cupple.nz","mentions":2,"lat":-39.63818,"lng":176.84335,"street":"Heretaunga St East","category":"services","zone":"east","verified":false},
    {"name":"Fotofest HB","handle":"@fotofest_hawkes_bay","mentions":2,"lat":-39.63712,"lng":176.84655,"street":"308 Heretaunga St East","category":"arts","zone":"east","verified":false},
    {"name":"Atrium HB","handle":"@atriumhawkesbay","mentions":2,"lat":-39.63685,"lng":176.84515,"street":"203 Queen St East","category":"arts","zone":"east","verified":true},
    {"name":"Charm Eatery","handle":"@charmeatery_cafe_and_bar","mentions":1,"lat":-39.63910,"lng":176.83960,"street":"108 Market St South","category":"food","zone":"west","verified":true},
    {"name":"Ott in the City","handle":"@ottinthecity","mentions":1,"lat":-39.63795,"lng":176.84470,"street":"Heretaunga St East","category":"food","zone":"east","verified":false},
    {"name":"Spooky's Pizzeria","handle":"@spookys.pizzeria","mentions":1,"lat":-39.63788,"lng":176.84500,"street":"Heretaunga St East","category":"food","zone":"east","verified":false},
    {"name":"Cedric's","handle":"@cedricshastings","mentions":1,"lat":-39.63730,"lng":176.84230,"street":"101 Hastings St South","category":"food","zone":"east","verified":true},
    {"name":"With Sugar On Top","handle":"@with_sugarontop","mentions":1,"lat":-39.63835,"lng":176.84260,"street":"Landmark Square","category":"food","zone":"east","verified":false},
    {"name":"Pita Pit","handle":"@pitapitnz","mentions":1,"lat":-39.63840,"lng":176.84240,"street":"Heretaunga St East","category":"food","zone":"east","verified":false},
    {"name":"Cafe Anatolia","handle":"@cafeanatolianz","mentions":1,"lat":-39.63850,"lng":176.84200,"street":"Heretaunga St East","category":"food","zone":"east","verified":false},
    {"name":"Cafe at Westerman's","handle":"@cafeatwestermans","mentions":1,"lat":-39.63855,"lng":176.84190,"street":"Heretaunga St East","category":"food","zone":"east","verified":false},
    {"name":"CoLab Hastings","handle":"@colabhastings","mentions":1,"lat":-39.63860,"lng":176.84120,"street":"Heretaunga St West","category":"food","zone":"west","verified":false},
    {"name":"OMGoodness","handle":"@omggoodnessnz","mentions":1,"lat":-39.63868,"lng":176.84100,"street":"Heretaunga St West","category":"food","zone":"west","verified":false},
    {"name":"Off the Track","handle":"@offthetrackhastings","mentions":1,"lat":-39.63872,"lng":176.84090,"street":"Heretaunga St West","category":"food","zone":"west","verified":false},
    {"name":"The Artisan Cafe","handle":"@the.artisan.cafe","mentions":1,"lat":-39.63878,"lng":176.84070,"street":"Heretaunga St West","category":"food","zone":"west","verified":false},
    {"name":"Mama's Donuts","handle":"@mamasdonutsnz","mentions":1,"lat":-39.63805,"lng":176.84400,"street":"Heretaunga St East","category":"food","zone":"east","verified":false},
    {"name":"Bambina Pizzeria","handle":"@bambinapizzeria_hb","mentions":1,"lat":-39.63745,"lng":176.84175,"street":"101 Russell St North","category":"food","zone":"east","verified":true},
    {"name":"Yabon French Baker","handle":"@yabonfrenchbaker","mentions":1,"lat":-39.63798,"lng":176.84460,"street":"Heretaunga St East","category":"food","zone":"east","verified":false},
    {"name":"Red Bridge Coffee","handle":"@redbridgecoffee","mentions":1,"lat":-39.63710,"lng":176.84660,"street":"308 Heretaunga St East","category":"food","zone":"east","verified":true},
    {"name":"Holly Bacon HB","handle":"@hollybaconhb","mentions":1,"lat":-39.63882,"lng":176.84060,"street":"Heretaunga St West","category":"food","zone":"west","verified":false},
    {"name":"K-Chicken","handle":"@k__chicken_","mentions":1,"lat":-39.63900,"lng":176.84010,"street":"Bay Plaza","category":"food","zone":"west","verified":false},
    {"name":"Toro Churro","handle":"@torochurrohastings","mentions":1,"lat":-39.63903,"lng":176.84005,"street":"Bay Plaza","category":"food","zone":"west","verified":false},
    {"name":"St Pierre's Sushi","handle":"@stpierres_sushi","mentions":1,"lat":-39.63906,"lng":176.84000,"street":"Bay Plaza","category":"food","zone":"west","verified":false},
    {"name":"Holy Crepe","handle":"@holycrepenz","mentions":1,"lat":-39.63909,"lng":176.83995,"street":"Bay Plaza","category":"food","zone":"west","verified":false},
    {"name":"Tank Juice","handle":"@tankjuicenz","mentions":1,"lat":-39.63912,"lng":176.83990,"street":"Bay Plaza","category":"food","zone":"west","verified":false},
    {"name":"Reburger","handle":"@reburgernz","mentions":1,"lat":-39.63915,"lng":176.83985,"street":"Bay Plaza","category":"food","zone":"west","verified":false},
    {"name":"Taiea Clothing","handle":"@_taiea","mentions":1,"lat":-39.63700,"lng":176.84720,"street":"325 Heretaunga St East","category":"retail","zone":"east","verified":true},
    {"name":"The Tile Shed","handle":"@tileshednz","mentions":1,"lat":-39.63720,"lng":176.84190,"street":"201 Eastbourne St","category":"retail","zone":"east","verified":true},
    {"name":"Lighting Direct","handle":"@lightingdirectnz","mentions":1,"lat":-39.63725,"lng":176.84200,"street":"Eastbourne St","category":"retail","zone":"east","verified":false},
    {"name":"Coco & Co","handle":"@cocoandco.hb","mentions":1,"lat":-39.63843,"lng":176.84230,"street":"Heretaunga St East","category":"retail","zone":"east","verified":false},
    {"name":"Real World","handle":"@realworldnz","mentions":1,"lat":-39.63848,"lng":176.84210,"street":"Heretaunga St East","category":"retail","zone":"east","verified":false},
    {"name":"Thomson's Suits","handle":"@thomsonssuits","mentions":1,"lat":-39.63835,"lng":176.84250,"street":"Heretaunga St East","category":"retail","zone":"east","verified":false},
    {"name":"Grieve Diamond Jeweller","handle":"@grievediamondjeweller","mentions":1,"lat":-39.63838,"lng":176.84240,"street":"Heretaunga St East","category":"retail","zone":"east","verified":false},
    {"name":"Michael Hill","handle":"@michaelhillj","mentions":1,"lat":-39.63841,"lng":176.84235,"street":"Heretaunga St East","category":"retail","zone":"east","verified":false},
    {"name":"Pascoes","handle":"@pascoes_","mentions":1,"lat":-39.63844,"lng":176.84225,"street":"Heretaunga St East","category":"retail","zone":"east","verified":false},
    {"name":"Richard James Jeweller","handle":"@richardjames.jeweller","mentions":1,"lat":-39.63847,"lng":176.84215,"street":"Heretaunga St East","category":"retail","zone":"east","verified":false},
    {"name":"Naked Jeweller","handle":"@the_naked_jeweller_hb","mentions":1,"lat":-39.63850,"lng":176.84205,"street":"Heretaunga St East","category":"retail","zone":"east","verified":false},
    {"name":"Creative Treasures","handle":"@creativetreasuresgifts","mentions":1,"lat":-39.63812,"lng":176.84370,"street":"Heretaunga St East","category":"retail","zone":"east","verified":false},
    {"name":"Hustle Surf & Moto","handle":"@hustlesurfandmoto","mentions":1,"lat":-39.63802,"lng":176.84430,"street":"Heretaunga St East","category":"retail","zone":"east","verified":false},
    {"name":"Shampoo Plus","handle":"@shampooplusnz","mentions":1,"lat":-39.63862,"lng":176.84110,"street":"209 Heretaunga St West","category":"retail","zone":"west","verified":true},
    {"name":"Spex Eyewear","handle":"@spexeyewear","mentions":1,"lat":-39.63858,"lng":176.84120,"street":"213 Heretaunga St West","category":"retail","zone":"west","verified":true},
    {"name":"Farmers","handle":"@farmersnz","mentions":1,"lat":-39.63890,"lng":176.84040,"street":"Heretaunga St West","category":"retail","zone":"west","verified":false},
    {"name":"Whitcoulls","handle":"@whitcoulls_nz","mentions":1,"lat":-39.63892,"lng":176.84030,"street":"Heretaunga St West","category":"retail","zone":"west","verified":false},
    {"name":"EB Games","handle":"@ebgamesnz","mentions":1,"lat":-39.63895,"lng":176.84020,"street":"Heretaunga St West","category":"retail","zone":"west","verified":false},
    {"name":"Number One Shoes","handle":"@numberoneshoesandhannahs","mentions":1,"lat":-39.63898,"lng":176.84015,"street":"Heretaunga St West","category":"retail","zone":"west","verified":false},
    {"name":"Bits n Bobear","handle":"@bitsnbobear","mentions":1,"lat":-39.63907,"lng":176.83998,"street":"Bay Plaza","category":"retail","zone":"west","verified":false},
    {"name":"Saddlery Warehouse","handle":"@saddlery_warehouse","mentions":1,"lat":-39.63920,"lng":176.83970,"street":"Heretaunga St West","category":"retail","zone":"west","verified":false},
    {"name":"Rivers to Ranges","handle":"@rivers_to_ranges","mentions":1,"lat":-39.63918,"lng":176.83975,"street":"Heretaunga St West","category":"retail","zone":"west","verified":false},
    {"name":"Luminescent Nails","handle":"@luminescent_nailsalon","mentions":1,"lat":-39.63828,"lng":176.84290,"street":"124 Heretaunga St East","category":"services","zone":"east","verified":true},
    {"name":"Lumino Dentists","handle":"@luminothedentists","mentions":1,"lat":-39.63735,"lng":176.84590,"street":"Eastbourne St","category":"services","zone":"east","verified":false},
    {"name":"Iconic Hair","handle":"@iconic_hairbeautymakeup","mentions":1,"lat":-39.63800,"lng":176.84440,"street":"Heretaunga St East","category":"services","zone":"east","verified":false},
    {"name":"Skin & Tonic Room","handle":"@theskinandtonicroom","mentions":1,"lat":-39.63716,"lng":176.84670,"street":"242 Heretaunga St East","category":"services","zone":"east","verified":true},
    {"name":"Lien Lashes","handle":"@lien_lashes_nailsbeauty","mentions":1,"lat":-39.63803,"lng":176.84435,"street":"Heretaunga St East","category":"services","zone":"east","verified":false},
    {"name":"Mphosis Hair","handle":"@mphosishair","mentions":1,"lat":-39.63795,"lng":176.84455,"street":"Heretaunga St East","category":"services","zone":"east","verified":false},
    {"name":"Aspyre Fitness","handle":"@aspyrefitness","mentions":1,"lat":-39.63920,"lng":176.83960,"street":"Heretaunga St West","category":"services","zone":"west","verified":false},
    {"name":"Flex Fitness","handle":"@flexfitnesshastings","mentions":1,"lat":-39.63925,"lng":176.83955,"street":"Heretaunga St West","category":"services","zone":"west","verified":false},
    {"name":"Kupa Martial Arts","handle":"@kupa_international_martialarts","mentions":1,"lat":-39.63928,"lng":176.83950,"street":"Heretaunga St West","category":"services","zone":"west","verified":false},
    {"name":"Rezpect Dance","handle":"@rezpectdanceacademy","mentions":1,"lat":-39.63930,"lng":176.83945,"street":"Heretaunga St West","category":"services","zone":"west","verified":false},
    {"name":"The Big Room","handle":"@thebig.room","mentions":1,"lat":-39.63812,"lng":176.84350,"street":"202 Heretaunga St East","category":"arts","zone":"east","verified":true},
    {"name":"Arts Inc","handle":"@artsinc.heretaungaa","mentions":1,"lat":-39.63748,"lng":176.84168,"street":"106 Russell St South","category":"arts","zone":"east","verified":true},
    {"name":"Cineverse","handle":"@cineversehastings","mentions":1,"lat":-39.63845,"lng":176.84220,"street":"Heretaunga St East","category":"arts","zone":"east","verified":false},
    {"name":"Humanity Books","handle":"@humanitybooksandfinearts","mentions":1,"lat":-39.63810,"lng":176.84380,"street":"Heretaunga St East","category":"arts","zone":"east","verified":false},
    {"name":"Waiāpu Road","handle":"@waiapuroad","mentions":1,"lat":-39.63855,"lng":176.84185,"street":"Waiāpu Rd","category":"arts","zone":"other","verified":false}
  ]
}
